{
  "description": "杜厦图书馆室内图 — 精细导航数据",
  "bounds": { "minLat": 32.1184, "maxLat": 32.1196, "minLng": 118.9564, "maxLng": 118.9578 },
  "entranceLink": "lib-1f-entrance",
  "floors": [
    {
      "level": 1,
      "label": "1F",
      "rooms": [
        { "x": -300, "y": -200, "w": 100, "h": 60, "label": "阅览室A", "color": "#e8f5e9" },
        { "x": -300, "y": -130, "w": 100, "h": 60, "label": "阅览室B", "color": "#e8f5e9" },
        { "x": 200, "y": -200, "w": 100, "h": 60, "label": "电子阅览室", "color": "#e3f2fd" },
        { "x": 200, "y": -130, "w": 100, "h": 60, "label": "期刊阅览室", "color": "#fff3e0" },
        { "x": -300, "y": 120, "w": 100, "h": 60, "label": "自习区A", "color": "#f3e5f5" },
        { "x": 200, "y": 120, "w": 100, "h": 60, "label": "自习区B", "color": "#f3e5f5" }
      ],
      "corridors": [
        { "x": -320, "y": -220, "w": 640, "h": 20, "label": "北通道" },
        { "x": -320, "y": 200, "w": 640, "h": 20, "label": "南通道" },
        { "x": -20, "y": -220, "w": 20, "h": 440, "label": "中央通道" }
      ],
      "verticals": [
        { "x": -20, "y": -20, "w": 20, "h": 20, "type": "stair", "label": "主楼梯" },
        { "x": 150, "y": -20, "w": 20, "h": 20, "type": "elevator", "label": "电梯" }
      ]
    },
    {
      "level": 2,
      "label": "2F",
      "rooms": [
        { "x": -300, "y": -200, "w": 100, "h": 60, "label": "社科阅览室", "color": "#e8f5e9" },
        { "x": -300, "y": -130, "w": 100, "h": 60, "label": "文史阅览室", "color": "#e8f5e9" },
        { "x": 200, "y": -200, "w": 100, "h": 60, "label": "理工阅览室", "color": "#e3f2fd" },
        { "x": -50, "y": -200, "w": 180, "h": 130, "label": "藏书区", "color": "#fce4ec" },
        { "x": -300, "y": 120, "w": 100, "h": 60, "label": "自习区C", "color": "#f3e5f5" },
        { "x": 200, "y": 120, "w": 100, "h": 60, "label": "自习区D", "color": "#f3e5f5" }
      ],
      "corridors": [
        { "x": -320, "y": -220, "w": 640, "h": 20, "label": "北通道" },
        { "x": -320, "y": 200, "w": 640, "h": 20, "label": "南通道" },
        { "x": -20, "y": -220, "w": 20, "h": 440, "label": "中央通道" }
      ],
      "verticals": [
        { "x": -20, "y": -20, "w": 20, "h": 20, "type": "stair", "label": "主楼梯" },
        { "x": 150, "y": -20, "w": 20, "h": 20, "type": "elevator", "label": "电梯" }
      ]
    },
    {
      "level": 3,
      "label": "3F",
      "rooms": [
        { "x": -300, "y": -200, "w": 100, "h": 60, "label": "古籍阅览室", "color": "#e8f5e9" },
        { "x": 200, "y": -200, "w": 100, "h": 60, "label": "外文阅览室", "color": "#e3f2fd" },
        { "x": -300, "y": 120, "w": 100, "h": 60, "label": "自习区E", "color": "#f3e5f5" },
        { "x": 200, "y": 120, "w": 100, "h": 60, "label": "研究小间", "color": "#fff3e0" }
      ],
      "corridors": [
        { "x": -320, "y": -220, "w": 640, "h": 20, "label": "北通道" },
        { "x": -320, "y": 200, "w": 640, "h": 20, "label": "南通道" },
        { "x": -20, "y": -220, "w": 20, "h": 440, "label": "中央通道" }
      ],
      "verticals": [
        { "x": -20, "y": -20, "w": 20, "h": 20, "type": "stair", "label": "主楼梯" },
        { "x": 150, "y": -20, "w": 20, "h": 20, "type": "elevator", "label": "电梯" }
      ]
    }
  ],
  "nodes": [
    { "id": "lib-1f-entrance", "type": "entrance", "lat": 32.1188, "lng": 118.9568, "floor": 1, "label": "图书馆 入口大厅", "connections": ["lib-1f-corridor-center"] },
    { "id": "lib-1f-corridor-center", "type": "corridor", "lat": 32.1190, "lng": 118.9570, "floor": 1, "label": "1F 中央通道", "connections": ["lib-1f-stair-1", "lib-1f-elevator", "lib-1f-room-readA", "lib-1f-room-e-read"] },
    { "id": "lib-1f-stair-1", "type": "stair", "lat": 32.1191, "lng": 118.9569, "floor": 1, "label": "主楼梯 1F", "connections": ["lib-1f-corridor-center", "lib-2f-stair-2"] },
    { "id": "lib-1f-elevator", "type": "elevator", "lat": 32.1190, "lng": 118.9572, "floor": 1, "label": "电梯 1F", "connections": ["lib-1f-corridor-center", "lib-2f-elevator", "lib-3f-elevator"] },
    { "id": "lib-1f-room-readA", "type": "room", "lat": 32.1191, "lng": 118.9566, "floor": 1, "label": "阅览室A", "connections": ["lib-1f-corridor-center"] },
    { "id": "lib-1f-room-e-read", "type": "room", "lat": 32.1192, "lng": 118.9575, "floor": 1, "label": "电子阅览室", "connections": ["lib-1f-corridor-center"] },

    { "id": "lib-2f-stair-2", "type": "stair", "lat": 32.1191, "lng": 118.9569, "floor": 2, "label": "主楼梯 2F", "connections": ["lib-2f-corridor-center", "lib-3f-stair-3"] },
    { "id": "lib-2f-elevator", "type": "elevator", "lat": 32.1190, "lng": 118.9572, "floor": 2, "label": "电梯 2F", "connections": ["lib-2f-corridor-center"] },
    { "id": "lib-2f-corridor-center", "type": "corridor", "lat": 32.1190, "lng": 118.9570, "floor": 2, "label": "2F 中央通道", "connections": ["lib-2f-stair-2", "lib-2f-elevator", "lib-2f-room-soc-sci"] },
    { "id": "lib-2f-room-soc-sci", "type": "room", "lat": 32.1191, "lng": 118.9566, "floor": 2, "label": "社科阅览室", "connections": ["lib-2f-corridor-center"] },

    { "id": "lib-3f-stair-3", "type": "stair", "lat": 32.1191, "lng": 118.9569, "floor": 3, "label": "主楼梯 3F", "connections": ["lib-3f-corridor-center"] },
    { "id": "lib-3f-elevator", "type": "elevator", "lat": 32.1190, "lng": 118.9572, "floor": 3, "label": "电梯 3F", "connections": ["lib-3f-corridor-center"] },
    { "id": "lib-3f-corridor-center", "type": "corridor", "lat": 32.1190, "lng": 118.9570, "floor": 3, "label": "3F 中央通道", "connections": ["lib-3f-stair-3", "lib-3f-elevator", "lib-3f-room-ancient"] },
    { "id": "lib-3f-room-ancient", "type": "room", "lat": 32.1191, "lng": 118.9566, "floor": 3, "label": "古籍阅览室", "connections": ["lib-3f-corridor-center"] }
  ],
  "edges": []
}
