{
  "description": "南京大学仙林校区室外路网图 — 主要步行道（含真实道路名称）",
  "nodes": [
    { "id": "gate-south", "type": "poi", "lat": 32.1150, "lng": 118.9570, "label": "南门", "connections": ["road-s1"] },
    { "id": "gate-west", "type": "poi", "lat": 32.1180, "lng": 118.9525, "label": "西门", "connections": ["road-w1"] },
    { "id": "gate-east", "type": "poi", "lat": 32.1200, "lng": 118.9620, "label": "东门", "connections": ["road-e1"] },
    { "id": "gate-north", "type": "poi", "lat": 32.1225, "lng": 118.9570, "label": "北门", "connections": ["road-n1"] },

    { "id": "road-s1", "type": "road", "lat": 32.1158, "lng": 118.9570, "label": "中大路南段（南门内）", "connections": ["road-s2"] },
    { "id": "road-s2", "type": "road", "lat": 32.1163, "lng": 118.9570, "label": "中大路中段", "connections": ["road-s1", "road-center-south"] },

    { "id": "road-center-south", "type": "road", "lat": 32.1170, "lng": 118.9570, "label": "礼仪大道南（仙I路口）", "connections": ["road-s2", "road-center", "road-xian1"] },
    { "id": "road-center", "type": "road", "lat": 32.1180, "lng": 118.9570, "label": "礼仪大道·远东大道交叉口", "connections": ["road-center-south", "road-center-north", "road-library"] },
    { "id": "road-center-north", "type": "road", "lat": 32.1195, "lng": 118.9570, "label": "远东大道东段（逸夫楼路口）", "connections": ["road-center", "road-n1", "road-yifu"] },

    { "id": "road-xian1", "type": "road", "lat": 32.1172, "lng": 118.9558, "label": "仙I教学楼前（择善楼）", "connections": ["road-center-south", "road-xian2"] },
    { "id": "road-xian2", "type": "road", "lat": 32.1181, "lng": 118.9558, "label": "仙II教学楼前（思源楼）", "connections": ["road-xian1", "road-student-center"] },
    { "id": "road-student-center", "type": "road", "lat": 32.1180, "lng": 118.9542, "label": "敬文活动中心前", "connections": ["road-xian2", "road-w1"] },

    { "id": "road-library", "type": "road", "lat": 32.1188, "lng": 118.9565, "label": "图书馆前（嫏嬛路）", "connections": ["road-center", "road-library-east"] },
    { "id": "road-library-east", "type": "road", "lat": 32.1190, "lng": 118.9582, "label": "图书馆东侧路", "connections": ["road-library", "road-yifu"] },

    { "id": "road-yifu", "type": "road", "lat": 32.1199, "lng": 118.9580, "label": "逸夫楼前（远东大道东）", "connections": ["road-center-north", "road-library-east", "road-e1"] },

    { "id": "road-w1", "type": "road", "lat": 32.1185, "lng": 118.9530, "label": "金大路（西门内）", "connections": ["road-student-center", "road-gym"] },
    { "id": "road-gym", "type": "road", "lat": 32.1200, "lng": 118.9535, "label": "体育馆前路（健行路）", "connections": ["road-w1", "road-center-north"] },

    { "id": "road-n1", "type": "road", "lat": 32.1210, "lng": 118.9570, "label": "中大路北段", "connections": ["road-center-north", "road-basic-lab"] },
    { "id": "road-basic-lab", "type": "road", "lat": 32.1209, "lng": 118.9562, "label": "基础实验楼前路", "connections": ["road-n1"] },

    { "id": "road-canteen1", "type": "road", "lat": 32.1161, "lng": 118.9578, "label": "一组团食堂前路", "connections": ["road-s2"] },

    { "id": "road-e1", "type": "road", "lat": 32.1203, "lng": 118.9600, "label": "远东大道东端（东门内）", "connections": ["road-yifu"] }
  ],
  "edges": [
    { "from": "gate-east", "to": "road-e1" },
    { "from": "gate-north", "to": "road-n1" },
    { "from": "gate-south", "to": "road-s1" },
    { "from": "gate-west", "to": "road-w1" },
    { "from": "road-basic-lab", "to": "road-n1" },
    { "from": "road-canteen1", "to": "road-s2" },
    { "from": "road-center", "to": "road-center-north" },
    { "from": "road-center", "to": "road-center-south" },
    { "from": "road-center", "to": "road-library" },
    { "from": "road-center-north", "to": "road-gym" },
    { "from": "road-center-north", "to": "road-n1" },
    { "from": "road-center-north", "to": "road-yifu" },
    { "from": "road-center-south", "to": "road-s2" },
    { "from": "road-center-south", "to": "road-xian1" },
    { "from": "road-e1", "to": "road-yifu" },
    { "from": "road-gym", "to": "road-w1" },
    { "from": "road-library", "to": "road-library-east" },
    { "from": "road-library-east", "to": "road-yifu" },
    { "from": "road-s1", "to": "road-s2" },
    { "from": "road-student-center", "to": "road-w1" },
    { "from": "road-student-center", "to": "road-xian2" },
    { "from": "road-xian1", "to": "road-xian2" }
  ]
}
